{
  "brewery": [
    {
      "id": "6d14b220-8926-4521-8d19-b98a2d6ec3db",
      "name": "10 Barrel Brewing Co",
      "brewery_type": "large",
      "address_1": "62970 18th St",
      "address_2": null,
      "address_3": null,
      "city": "Bend",
      "state_province": "Oregon",
      "postal_code": "97701-9847",
      "country": "United States",
      "longitude": "-121.281706",
      "latitude": "44.08683531",
      "phone": "5415851007",
      "website_url": "http://www.10barrel.com",
      "state": "Oregon",
      "street": "62970 18th St"
    },
    {
      "id": "9c5a66c8-cc13-416f-a5d9-0a769c87d318",
      "name": "(512) Brewing Co",
      "brewery_type": "micro",
      "address_1": "407 Radam Ln Ste F200",
      "address_2": null,
      "address_3": null,
      "city": "Austin",
      "state_province": "Texas",
      "postal_code": "78745-1197",
      "country": "United States",
      "longitude": null,
      "latitude": null,
      "phone": "5129211545",
      "website_url": "http://www.512brewing.com",
      "state": "Texas",
      "street": "407 Radam Ln Ste F200"
    },
    {
      "id": "03118499-a3d0-4c22-860d-4529509ae095",
      "name": "101 Brewery",
      "brewery_type": "brewpub",
      "address_1": "294793 US Highway 101",
      "address_2": null,
      "address_3": null,
      "city": "Quilcene",
      "state_province": "Washington",
      "postal_code": "98376-9000",
      "country": "United States",
      "longitude": "-122.8755823",
      "latitude": "47.82347577",
      "phone": "3607656485",
      "website_url": "http://www.101brewery.com",
      "state": "Washington",
      "street": "294793 US Highway 101"
    },
    {
      "id": "c3bd1af8-2ca2-4a14-b733-8c4d788c4752",
      "name": "Eagle Park Brewing Company",
      "brewery_type": "brewpub",
      "address_1": "823 E Hamilton St",
      "address_2": null,
      "address_3": null,
      "city": "Milwaukee",
      "state_province": "Wisconsin",
      "postal_code": "53202",
      "country": "United States",
      "longitude": "-87.90143961",
      "latitude": "43.0542106",
      "phone": "4145850123",
      "website_url": "http://www.eagleparkbrewing.com",
      "state": "Wisconsin",
      "street": "823 E Hamilton St"
    },
    {
      "id": "895ddfb0-8827-49d4-914e-c289559e854d",
      "name": "Tribute Brewing Co",
      "brewery_type": "micro",
      "address_1": "1106 N Bluebird Rd",
      "address_2": null,
      "address_3": null,
      "city": "Eagle River",
      "state_province": "Wisconsin",
      "postal_code": "54521-7557",
      "country": "United States",
      "longitude": "-89.2579185",
      "latitude": "45.92935062",
      "phone": "7154802337",
      "website_url": "http://www.tributebrewing.com",
      "state": "Wisconsin",
      "street": "1106 N Bluebird Rd"
    },
    {
      "id": "52a1d246-495c-4d4a-9166-5fed18ae10f0",
      "name": "Odd Man Rush",
      "brewery_type": "micro",
      "address_1": "10930 Mausel St Ste A1",
      "address_2": null,
      "address_3": null,
      "city": "Eagle River",
      "state_province": "Alaska",
      "postal_code": "99577-8095",
      "country": "United States",
      "longitude": "-149.580902",
      "latitude": "61.320013",
      "phone": "9076962337",
      "website_url": "http://www.oddmanrushbrewing.com",
      "state": "Alaska",
      "street": "10930 Mausel St Ste A1"
    },
    {
      "id": "3cb83545-6111-426e-8c53-f463bdefbd9b",
      "name": "Blue Earl Brewing Company",
      "brewery_type": "micro",
      "address_1": "210 Artisan Dr",
      "address_2": null,
      "address_3": null,
      "city": "Smyrna",
      "state_province": "Delaware",
      "postal_code": "19977-3715",
      "country": "United States",
      "longitude": "-75.62418056",
      "latitude": "39.28096844",
      "phone": null,
      "website_url": "http://www.blueearlbrewing.com",
      "state": "Delaware",
      "street": "210 Artisan Dr"
    }
  ]
}